location,latitude,longitude
Belgium,50.503887,4.469936
Cameroon,7.369722,12.354722
Canada,56.130366,-106.346771
France,	46.227638,2.213749
Gabon,-0.803689,11.609444
Germany,51.165691,10.451526
Japan,36.204824,138.252924
Luxembourg,49.815273,6.129583
Rwanda,-1.940278,29.873888
SouthAfrica,-30.559482,22.937506
SouthKorea,35.907757,127.766922
Switzerland,46.818188,8.227512
Turkey,38.963745,35.243322
USA,37.09024,-95.712891
